[
    {
      "id": "3003991",
      "port_name": "Anaa",
      "port_code": "AAA",
      "city": "AAA",
      "country_name": "French Polynesia",
      "country_iso2": "PF",
      "latitude": -17.05,
      "longitude": -145.41667,
      "type": "Airport"
    },
    {
      "id": "3003992",
      "port_name": "Arrabury",
      "port_code": "AAB",
      "city": "AAB",
      "country_name": "Australia",
      "country_iso2": "AU",
      "latitude": -26.7,
      "longitude": 141.04167,
      "type": "Airport"
    },
    {
      "id": "3003993",
      "port_name": "El Arish International Airport",
      "port_code": "AAC",
      "city": "AAC",
      "country_name": "Egypt",
      "country_iso2": "EG",
      "latitude": 31.133333,
      "longitude": 33.75,
      "type": "Airport"
    },
    {
      "id": "3003994",
      "port_name": "Les Salines",
      "port_code": "AAE",
      "city": "AAE",
      "country_name": null,
      "country_iso2": "DZ",
      "latitude": 36.821392,
      "longitude": 7.811857,
      "type": "Airport"
    },
    {
      "id": "3003995",
      "port_name": "Apalachicola Regional",
      "port_code": "AAF",
      "city": "AAF",
      "country_name": "United States",
      "country_iso2": "US",
      "latitude": 29.733334,
      "longitude": -84.98333,
      "type": "Airport"
    },
    {
      "id": "3003996",
      "port_name": "Arapoti",
      "port_code": "AAG",
      "city": "AAG",
      "country_name": "Brazil",
      "country_iso2": "BR",
      "latitude": -24.103611,
      "longitude": -49.79,
      "type": "Airport"
    },
    {
      "id": "3003997",
      "port_name": "Aachen/Merzbruck",
      "port_code": "AAH",
      "city": "AAH",
      "country_name": "Germany",
      "country_iso2": "DE",
      "latitude": 50.75,
      "longitude": 6.133333,
      "type": "Airport"
    },
    {
      "id": "3003998",
      "port_name": "Arraias",
      "port_code": "AAI",
      "city": "AAI",
      "country_name": "Brazil",
      "country_iso2": "BR",
      "latitude": -12.916667,
      "longitude": -46.933334,
      "type": "Airport"
    },
    {
      "id": "3004000",
      "port_name": "Aranuka",
      "port_code": "AAK",
      "city": "AAK",
      "country_name": "Kiribati",
      "country_iso2": "KI",
      "latitude": 0.166667,
      "longitude": 173.58333,
      "type": "Airport"
    },
    {
      "id": "3004001",
      "port_name": "Aalborg",
      "port_code": "AAL",
      "city": "AAL",
      "country_name": "Denmark",
      "country_iso2": "DK",
      "latitude": 57.08655,
      "longitude": 9.872241,
      "type": "Airport"
    },
    {
      "id": "3004002",
      "port_name": "Mala Mala",
      "port_code": "AAM",
      "city": "AAM",
      "country_name": "South Africa",
      "country_iso2": "ZA",
      "latitude": -24.8,
      "longitude": 31.533333,
      "type": "Airport"
    },
    {
      "id": "3004003",
      "port_name": "Al Ain",
      "port_code": "AAN",
      "city": "AAN",
      "country_name": "United Arab Emirates",
      "country_iso2": "AE",
      "latitude": 24.260231,
      "longitude": 55.616627,
      "type": "Airport"
    },
    {
      "id": "3004005",
      "port_name": "Anapa",
      "port_code": "AAQ",
      "city": "AAQ",
      "country_name": "Russia",
      "country_iso2": "RU",
      "latitude": 44.9,
      "longitude": 37.316666,
      "type": "Airport"
    },
    {
      "id": "3004006",
      "port_name": "Aarhus Airport",
      "port_code": "AAR",
      "city": "AAR",
      "country_name": "Denmark",
      "country_iso2": "DK",
      "latitude": 56.30823,
      "longitude": 10.626351,
      "type": "Airport"
    },
    {
      "id": "3004008",
      "port_name": "Altay",
      "port_code": "AAT",
      "city": "AAT",
      "country_name": "China",
      "country_iso2": "CN",
      "latitude": 47.750362,
      "longitude": 88.08444,
      "type": "Airport"
    },
    {
      "id": "3004012",
      "port_name": "Araxa",
      "port_code": "AAX",
      "city": "AAX",
      "country_name": "Brazil",
      "country_iso2": "BR",
      "latitude": -19.568056,
      "longitude": -46.92917,
      "type": "Airport"
    },
    {
      "id": "3004013",
      "port_name": "Al Ghaydah",
      "port_code": "AAY",
      "city": "AAY",
      "country_name": "Yemen",
      "country_iso2": "YE",
      "latitude": 16.19596,
      "longitude": 52.173256,
      "type": "Airport"
    },
    {
      "id": "3004014",
      "port_name": "Quetzaltenango",
      "port_code": "AAZ",
      "city": "AAZ",
      "country_name": "Guatemala",
      "country_iso2": "GT",
      "latitude": 14.87,
      "longitude": -91.5,
      "type": "Airport"
    },
    {
      "id": "3004015",
      "port_name": "Abakan",
      "port_code": "ABA",
      "city": "ABA",
      "country_name": "Russia",
      "country_iso2": "RU",
      "latitude": 53.716667,
      "longitude": 91.5,
      "type": "Airport"
    },
    {
      "id": "3004016",
      "port_name": "Asaba International",
      "port_code": "ABB",
      "city": "ABB",
      "country_name": "Nigeria",
      "country_iso2": "NG",
      "latitude": 6.203333,
      "longitude": 6.65888,
      "type": "Airport"
    },
    {
      "id": "3004017",
      "port_name": "Los Llanos",
      "port_code": "ABC",
      "city": "ABC",
      "country_name": "Spain",
      "country_iso2": "ES",
      "latitude": 38.948334,
      "longitude": -1.863333,
      "type": "Airport"
    },
    {
      "id": "3004018",
      "port_name": "Abadan",
      "port_code": "ABD",
      "city": "ABD",
      "country_name": "Iran",
      "country_iso2": "IR",
      "latitude": 30.363905,
      "longitude": 48.226597,
      "type": "Airport"
    },
    {
      "id": "3004019",
      "port_name": "Lehigh Valley International",
      "port_code": "ABE",
      "city": "ABE",
      "country_name": "United States",
      "country_iso2": "US",
      "latitude": 40.651573,
      "longitude": -75.434364,
      "type": "Airport"
    },
    {
      "id": "3004022",
      "port_name": "Alpha",
      "port_code": "ABH",
      "city": "ABH",
      "country_name": "Australia",
      "country_iso2": "AU",
      "latitude": -23.65,
      "longitude": 146.63333,
      "type": "Airport"
    },
    {
      "id": "3004023",
      "port_name": "Municipal",
      "port_code": "ABI",
      "city": "ABI",
      "country_name": "United States",
      "country_iso2": "US",
      "latitude": 32.409443,
      "longitude": -99.679726,
      "type": "Airport"
    },
    {
      "id": "3004024",
      "port_name": "Felix Houphouet Boigny",
      "port_code": "ABJ",
      "city": "ABJ",
      "country_name": null,
      "country_iso2": "CI",
      "latitude": 5.254879,
      "longitude": -3.933015,
      "type": "Airport"
    },
    {
      "id": "3004025",
      "port_name": "Kabri Dar",
      "port_code": "ABK",
      "city": "ABK",
      "country_name": "Ethiopia",
      "country_iso2": "ET",
      "latitude": 6.733889,
      "longitude": 44.26611,
      "type": "Airport"
    },
    {
      "id": "3004026",
      "port_name": "Ambler",
      "port_code": "ABL",
      "city": "ABL",
      "country_name": "United States",
      "country_iso2": "US",
      "latitude": 67.0875,
      "longitude": -157.84584,
      "type": "Airport"
    },
    {
      "id": "3004027",
      "port_name": "Bamaga Injinoo",
      "port_code": "ABM",
      "city": "ABM",
      "country_name": "Australia",
      "country_iso2": "AU",
      "latitude": -10.942619,
      "longitude": 142.45033,
      "type": "Airport"
    },
    {
      "id": "3004029",
      "port_name": "Aboisso",
      "port_code": "ABO",
      "city": "ABO",
      "country_name": null,
      "country_iso2": "CI",
      "latitude": 5.433333,
      "longitude": -3.216667,
      "type": "Airport"
    },
    {
      "id": "3004031",
      "port_name": "Albuquerque International",
      "port_code": "ABQ",
      "city": "ABQ",
      "country_name": "United States",
      "country_iso2": "US",
      "latitude": 35.049625,
      "longitude": -106.617195,
      "type": "Airport"
    },
    {
      "id": "3004032",
      "port_name": "Municipal",
      "port_code": "ABR",
      "city": "ABR",
      "country_name": "United States",
      "country_iso2": "US",
      "latitude": 45.4525,
      "longitude": -98.42611,
      "type": "Airport"
    },
    {
      "id": "3004033",
      "port_name": "Abu Simbel",
      "port_code": "ABS",
      "city": "ABS",
      "country_name": "Egypt",
      "country_iso2": "EG",
      "latitude": 22.367567,
      "longitude": 31.609774,
      "type": "Airport"
    },
    {
      "id": "3004034",
      "port_name": "Al-Aqiq",
      "port_code": "ABT",
      "city": "ABT",
      "country_name": "Saudi Arabia",
      "country_iso2": "SA",
      "latitude": 20.29401,
      "longitude": 41.64002,
      "type": "Airport"
    },
    {
      "id": "3004035",
      "port_name": "Atambua",
      "port_code": "ABU",
      "city": "ABU",
      "country_name": "Indonesia",
      "country_iso2": "ID",
      "latitude": -9.133333,
      "longitude": 124.88333,
      "type": "Airport"
    },
    {
      "id": "3004036",
      "port_name": "Nnamdi Azikiwe International Airport",
      "port_code": "ABV",
      "city": "ABV",
      "country_name": "Nigeria",
      "country_iso2": "NG",
      "latitude": 9.004614,
      "longitude": 7.270447,
      "type": "Airport"
    },
    {
      "id": "3004038",
      "port_name": "Albury",
      "port_code": "ABX",
      "city": "ABX",
      "country_name": "Australia",
      "country_iso2": "AU",
      "latitude": -36.069626,
      "longitude": 146.95453,
      "type": "Airport"
    },
    {
      "id": "3004039",
      "port_name": "Dougherty County",
      "port_code": "ABY",
      "city": "ABY",
      "country_name": "United States",
      "country_iso2": "US",
      "latitude": 31.532223,
      "longitude": -84.19611,
      "type": "Airport"
    },
    {
      "id": "3004040",
      "port_name": "Dyce",
      "port_code": "ABZ",
      "city": "ABZ",
      "country_name": "United Kingdom",
      "country_iso2": "GB",
      "latitude": 57.200253,
      "longitude": -2.204186,
      "type": "Airport"
    },
    {
      "id": "3004041",
      "port_name": "General Juan N. Alvarez International",
      "port_code": "ACA",
      "city": "ACA",
      "country_name": "Mexico",
      "country_iso2": "MX",
      "latitude": 16.762403,
      "longitude": -99.75459,
      "type": "Airport"
    },
    {
      "id": "3004042",
      "port_name": "Antrim County",
      "port_code": "ACB",
      "city": "ACB",
      "country_name": "United States",
      "country_iso2": "US",
      "latitude": 44.983334,
      "longitude": -85.21667,
      "type": "Airport"
    },
    {
      "id": "3004043",
      "port_name": "Kotoka",
      "port_code": "ACC",
      "city": "ACC",
      "country_name": "Ghana",
      "country_iso2": "GH",
      "latitude": 5.60737,
      "longitude": -0.171769,
      "type": "Airport"
    },
    {
      "id": "3004044",
      "port_name": "Acandi",
      "port_code": "ACD",
      "city": "ACD",
      "country_name": "Colombia",
      "country_iso2": "CO",
      "latitude": 8.516667,
      "longitude": -77.3,
      "type": "Airport"
    },
    {
      "id": "3004045",
      "port_name": "Lanzarote",
      "port_code": "ACE",
      "city": "ACE",
      "country_name": "Spain",
      "country_iso2": "ES",
      "latitude": 28.950668,
      "longitude": -13.609059,
      "type": "Airport"
    },
    {
      "id": "3004046",
      "port_name": "Altenrhein",
      "port_code": "ACH",
      "city": "ACH",
      "country_name": "Switzerland",
      "country_iso2": "CH",
      "latitude": 47.483334,
      "longitude": 9.566667,
      "type": "Airport"
    },
    {
      "id": "3004047",
      "port_name": "The Blaye",
      "port_code": "ACI",
      "city": "ACI",
      "country_name": "Guernsey",
      "country_iso2": "GG",
      "latitude": 49.709347,
      "longitude": -2.215369,
      "type": "Airport"
    },
    {
      "id": "3004048",
      "port_name": "Anuradhapura",
      "port_code": "ACJ",
      "city": "ACJ",
      "country_name": "Sri Lanka",
      "country_iso2": "LK",
      "latitude": 8.35,
      "longitude": 80.38333,
      "type": "Airport"
    },
    {
      "id": "3004049",
      "port_name": "Nantucket Memorial",
      "port_code": "ACK",
      "city": "ACK",
      "country_name": "United States",
      "country_iso2": "US",
      "latitude": 41.256668,
      "longitude": -70.05972,
      "type": "Airport"
    },
    {
      "id": "3004052",
      "port_name": "Ciudad Acuña International Airport",
      "port_code": "ACN",
      "city": "ACN",
      "country_name": "Mexico",
      "country_iso2": "MX",
      "latitude": 29.3,
      "longitude": -100.916664,
      "type": "Airport"
    },
    {
      "id": "3004053",
      "port_name": "Sahand",
      "port_code": "ACP",
      "city": "ACP",
      "country_name": "Iran",
      "country_iso2": "IR",
      "latitude": 37.347244,
      "longitude": 46.145115,
      "type": "Airport"
    },
    {
      "id": "3004054",
      "port_name": "Araracuara",
      "port_code": "ACR",
      "city": "ACR",
      "country_name": "Colombia",
      "country_iso2": "CO",
      "latitude": -0.383333,
      "longitude": -72.3,
      "type": "Airport"
    },
    {
      "id": "3004055",
      "port_name": "Achinsk",
      "port_code": "ACS",
      "city": "ACS",
      "country_name": "Russia",
      "country_iso2": "RU",
      "latitude": 56.266666,
      "longitude": 90.566666,
      "type": "Airport"
    },
    {
      "id": "3004056",
      "port_name": "Municipal",
      "port_code": "ACT",
      "city": "ACT",
      "country_name": "United States",
      "country_iso2": "US",
      "latitude": 31.609133,
      "longitude": -97.22321,
      "type": "Airport"
    },
    {
      "id": "3004058",
      "port_name": "Arcata",
      "port_code": "ACV",
      "city": "ACV",
      "country_name": "United States",
      "country_iso2": "US",
      "latitude": 40.970913,
      "longitude": -124.106926,
      "type": "Airport"
    },
    {
      "id": "3004060",
      "port_name": "Atlantic City International",
      "port_code": "ACY",
      "city": "AIY",
      "country_name": "United States",
      "country_iso2": "US",
      "latitude": 39.450703,
      "longitude": -74.572235,
      "type": "Airport"
    },
    {
      "id": "3004061",
      "port_name": "Zabol Airport",
      "port_code": "ACZ",
      "city": "ACZ",
      "country_name": "Iran",
      "country_iso2": "IR",
      "latitude": 31.087694,
      "longitude": 61.542244,
      "type": "Airport"
    },
    {
      "id": "3004062",
      "port_name": "Adana",
      "port_code": "ADA",
      "city": "ADA",
      "country_name": "Turkey",
      "country_iso2": "TR",
      "latitude": 36.98503,
      "longitude": 35.29736,
      "type": "Airport"
    },
    {
      "id": "3004063",
      "port_name": "Adnan Menderes Airport",
      "port_code": "ADB",
      "city": "IZM",
      "country_name": "Turkey",
      "country_iso2": "TR",
      "latitude": 38.294403,
      "longitude": 27.147594,
      "type": "Airport"
    },
    {
      "id": "3004065",
      "port_name": "Bole International",
      "port_code": "ADD",
      "city": "ADD",
      "country_name": "Ethiopia",
      "country_iso2": "ET",
      "latitude": 8.983759,
      "longitude": 38.7959,
      "type": "Airport"
    },
    {
      "id": "3004066",
      "port_name": "Aden International Airport",
      "port_code": "ADE",
      "city": "ADE",
      "country_name": "Yemen",
      "country_iso2": "YE",
      "latitude": 12.826116,
      "longitude": 45.037537,
      "type": "Airport"
    },
    {
      "id": "3004067",
      "port_name": "Adiyaman",
      "port_code": "ADF",
      "city": "ADF",
      "country_name": "Turkey",
      "country_iso2": "TR",
      "latitude": 37.75,
      "longitude": 38.266666,
      "type": "Airport"
    },
    {
      "id": "3004068",
      "port_name": "Lenawee County",
      "port_code": "ADG",
      "city": "ADG",
      "country_name": "United States",
      "country_iso2": "US",
      "latitude": 41.9,
      "longitude": -84.03333,
      "type": "Airport"
    },
    {
      "id": "3004069",
      "port_name": "Aldan",
      "port_code": "ADH",
      "city": "ADH",
      "country_name": "Russia",
      "country_iso2": "RU",
      "latitude": 58.6,
      "longitude": 125.4,
      "type": "Airport"
    },
    {
      "id": "3004070",
      "port_name": "Arandis",
      "port_code": "ADI",
      "city": "ADI",
      "country_name": "Namibia",
      "country_iso2": "NA",
      "latitude": -22.4,
      "longitude": 15,
      "type": "Airport"
    },
    {
      "id": "3004071",
      "port_name": "Marka International Airport",
      "port_code": "ADJ",
      "city": "AMM",
      "country_name": "Jordan",
      "country_iso2": "JO",
      "latitude": 31.97533,
      "longitude": 35.98277,
      "type": "Airport"
    },
    {
      "id": "3004072",
      "port_name": "Adak Island Ns",
      "port_code": "ADK",
      "city": "ADK",
      "country_name": "United States",
      "country_iso2": "US",
      "latitude": 51.88278,
      "longitude": -176.64473,
      "type": "Airport"
    },
    {
      "id": "3004073",
      "port_name": "Adelaide International Airport",
      "port_code": "ADL",
      "city": "ADL",
      "country_name": "Australia",
      "country_iso2": "AU",
      "latitude": -34.938175,
      "longitude": 138.53735,
      "type": "Airport"
    },
    {
      "id": "3004074",
      "port_name": "Ardmore Municipal Airport",
      "port_code": "ADM",
      "city": "ADM",
      "country_name": "United States",
      "country_iso2": "US",
      "latitude": 34.303055,
      "longitude": -97.01945,
      "type": "Airport"
    },
    {
      "id": "3004076",
      "port_name": "Andamooka",
      "port_code": "ADO",
      "city": "ADO",
      "country_name": "Australia",
      "country_iso2": "AU",
      "latitude": -31.016666,
      "longitude": 137.15,
      "type": "Airport"
    },
    {
      "id": "3004078",
      "port_name": "Kodiak Airport",
      "port_code": "ADQ",
      "city": "ADQ",
      "country_name": "United States",
      "country_iso2": "US",
      "latitude": 57.755276,
      "longitude": -152.51297,
      "type": "Airport"
    },
    {
      "id": "3004079",
      "port_name": "Andrews",
      "port_code": "ADR",
      "city": "ADR",
      "country_name": "United States",
      "country_iso2": "US",
      "latitude": 33.45,
      "longitude": -79.566666,
      "type": "Airport"
    },
    {
      "id": "3004080",
      "port_name": "Addison Airport",
      "port_code": "ADS",
      "city": "DFW",
      "country_name": "United States",
      "country_iso2": "US",
      "latitude": 32.783333,
      "longitude": -97.3,
      "type": "Airport"
    },
    {
      "id": "3004081",
      "port_name": "Ada Municipal",
      "port_code": "ADT",
      "city": "ADT",
      "country_name": "United States",
      "country_iso2": "US",
      "latitude": 34.8,
      "longitude": -96.666664,
      "type": "Airport"
    },
    {
      "id": "3004082",
      "port_name": "Ardabil",
      "port_code": "ADU",
      "city": "ADU",
      "country_name": "Iran",
      "country_iso2": "IR",
      "latitude": 38.323826,
      "longitude": 48.42125,
      "type": "Airport"
    },
    {
      "id": "3004084",
      "port_name": "Leuchars",
      "port_code": "ADX",
      "city": "ADX",
      "country_name": "United Kingdom",
      "country_iso2": "GB",
      "latitude": 56.36667,
      "longitude": -2.866667,
      "type": "Airport"
    },
    {
      "id": "3004085",
      "port_name": "Alldays",
      "port_code": "ADY",
      "city": "ADY",
      "country_name": "South Africa",
      "country_iso2": "ZA",
      "latitude": -22.666668,
      "longitude": 29.05,
      "type": "Airport"
    },
    {
      "id": "3004086",
      "port_name": "San Andres Island",
      "port_code": "ADZ",
      "city": "ADZ",
      "country_name": "Colombia",
      "country_iso2": "CO",
      "latitude": 12.586047,
      "longitude": -81.70221,
      "type": "Airport"
    },
    {
      "id": "3004087",
      "port_name": "Abemama Atoll",
      "port_code": "AEA",
      "city": "AEA",
      "country_name": "Kiribati",
      "country_iso2": "KI",
      "latitude": 0.483333,
      "longitude": 173.85,
      "type": "Airport"
    },
    {
      "id": "3004091",
      "port_name": "Aek Godang",
      "port_code": "AEG",
      "city": "AEG",
      "country_name": "Indonesia",
      "country_iso2": "ID",
      "latitude": 1.399722,
      "longitude": 99.416664,
      "type": "Airport"
    },
    {
      "id": "3004092",
      "port_name": "Abéché",
      "port_code": "AEH",
      "city": "AEH",
      "country_name": null,
      "country_iso2": "TD",
      "latitude": 13.851389,
      "longitude": 20.850834,
      "type": "Airport"
    },
    {
      "id": "3004095",
      "port_name": "Albert Lea",
      "port_code": "AEL",
      "city": "AEL",
      "country_name": "United States",
      "country_iso2": "US",
      "latitude": 43.65,
      "longitude": -93.36667,
      "type": "Airport"
    },
    {
      "id": "3004096",
      "port_name": "Aioun El Atrouss",
      "port_code": "AEO",
      "city": "AEO",
      "country_name": "Mauritania",
      "country_iso2": "MR",
      "latitude": 16.709167,
      "longitude": -9.635556,
      "type": "Airport"
    },
    {
      "id": "3004097",
      "port_name": "Aeroparque Jorge Newbery",
      "port_code": "AEP",
      "city": "BUE",
      "country_name": "Argentina",
      "country_iso2": "AR",
      "latitude": -34.55622,
      "longitude": -58.41667,
      "type": "Airport"
    },
    {
      "id": "3004098",
      "port_name": "Sochi/Adler International Airport",
      "port_code": "AER",
      "city": "AER",
      "country_name": "Russia",
      "country_iso2": "RU",
      "latitude": 43.44884,
      "longitude": 39.941105,
      "type": "Airport"
    },
    {
      "id": "3004099",
      "port_name": "Vigra",
      "port_code": "AES",
      "city": "AES",
      "country_name": "Norway",
      "country_iso2": "NO",
      "latitude": 62.559643,
      "longitude": 6.116605,
      "type": "Airport"
    },
    {
      "id": "3004100",
      "port_name": "Allakaket",
      "port_code": "AET",
      "city": "AET",
      "country_name": "United States",
      "country_iso2": "US",
      "latitude": 66.56167,
      "longitude": -152.65834,
      "type": "Airport"
    },
    {
      "id": "3004101",
      "port_name": "Abu Musa",
      "port_code": "AEU",
      "city": "AEU",
      "country_name": "Iran",
      "country_iso2": "IR",
      "latitude": 25.8875,
      "longitude": 55.041668,
      "type": "Airport"
    },
    {
      "id": "3004102",
      "port_name": "Alexandria International",
      "port_code": "AEX",
      "city": "AEX",
      "country_name": "United States",
      "country_iso2": "US",
      "latitude": 31.321268,
      "longitude": -92.53958,
      "type": "Airport"
    },
    {
      "id": "3004103",
      "port_name": "Akureyri",
      "port_code": "AEY",
      "city": "AEY",
      "country_name": "Iceland",
      "country_iso2": "IS",
      "latitude": 65.654564,
      "longitude": -18.075068,
      "type": "Airport"
    },
    {
      "id": "3004104",
      "port_name": "San Rafael",
      "port_code": "AFA",
      "city": "AFA",
      "country_name": "Argentina",
      "country_iso2": "AR",
      "latitude": -34.58917,
      "longitude": -68.40056,
      "type": "Airport"
    },
    {
      "id": "3004105",
      "port_name": "Port Alfred",
      "port_code": "AFD",
      "city": "AFD",
      "country_name": "South Africa",
      "country_iso2": "ZA",
      "latitude": -33.583332,
      "longitude": 26.883333,
      "type": "Airport"
    },
    {
      "id": "3004106",
      "port_name": "USAF Academy Airstrip",
      "port_code": "AFF",
      "city": "COS",
      "country_name": "United States",
      "country_iso2": "US",
      "latitude": 38.833332,
      "longitude": -104.7,
      "type": "Airport"
    },
    {
      "id": "3004107",
      "port_name": "Amalfi",
      "port_code": "AFI",
      "city": "AFI",
      "country_name": "Colombia",
      "country_iso2": "CO",
      "latitude": 6.916667,
      "longitude": -75.066666,
      "type": "Airport"
    },
    {
      "id": "3004109",
      "port_name": "Alta Floresta",
      "port_code": "AFL",
      "city": "AFL",
      "country_name": "Brazil",
      "country_iso2": "BR",
      "latitude": -9.872456,
      "longitude": -56.104767,
      "type": "Airport"
    },
    {
      "id": "3004110",
      "port_name": "Municipal",
      "port_code": "AFN",
      "city": "AFN",
      "country_name": "United States",
      "country_iso2": "US",
      "latitude": 42.833332,
      "longitude": -72.066666,
      "type": "Airport"
    },
    {
      "id": "3004111",
      "port_name": "Municipal",
      "port_code": "AFO",
      "city": "AFO",
      "country_name": "United States",
      "country_iso2": "US",
      "latitude": 42.733334,
      "longitude": -110.933334,
      "type": "Airport"
    },
    {
      "id": "3004113",
      "port_name": "Zarafshan",
      "port_code": "AFS",
      "city": "AFS",
      "country_name": "Uzbekistan",
      "country_iso2": "UZ",
      "latitude": 41.61361,
      "longitude": 64.233055,
      "type": "Airport"
    },
    {
      "id": "3004114",
      "port_name": "Afutara Aerodrome",
      "port_code": "AFT",
      "city": "AFT",
      "country_name": "Solomon Islands",
      "country_iso2": "SB",
      "latitude": -9.2,
      "longitude": 160.85,
      "type": "Airport"
    },
    {
      "id": "3004115",
      "port_name": "Fort Worth Alliance",
      "port_code": "AFW",
      "city": "DFW",
      "country_name": "United States",
      "country_iso2": "US",
      "latitude": 32.986668,
      "longitude": -97.316666,
      "type": "Airport"
    },
    {
      "id": "3004116",
      "port_name": "Afyon",
      "port_code": "AFY",
      "city": "AFY",
      "country_name": "Turkey",
      "country_iso2": "TR",
      "latitude": 38.733334,
      "longitude": 30.6,
      "type": "Airport"
    }
  ]